City_ID,City,Country,Max Temp,Current Description,Lat,Lng,Hotel Name
0,Taoudenni,ML,76.32,clear sky,22.6783,-3.9836,
1,Saint-Louis,SN,76.64,clear sky,16.3333,-15.0,
2,Kalmunai,LK,79.12,clear sky,7.4167,81.8167,VS Villa
3,Tucuman,AR,60.8,clear sky,-26.8241,-65.2226,Dallas Hotel Tucuman
4,Tessalit,ML,72.5,clear sky,20.1986,1.0114,
6,Buala,SB,83.37,overcast clouds,-8.145,159.5921,Maringe Lagoon Lodge
12,Vaini,TO,84.36,few clouds,-21.2,-175.2,Keleti Beach Resort
15,Hobart,AU,61.02,broken clouds,-42.8794,147.3294,St Ives Hobart Accommodation Tasmania
16,Airai,TL,72.07,overcast clouds,-8.9266,125.4092,
17,Puerto Ayora,EC,76.08,broken clouds,-0.7393,-90.3518,Finch Bay Galapagos Hotel
18,Souillac,MU,75.58,light rain,-20.5167,57.5167,Shanti Maurice Resort & Spa
19,Majene,ID,84.25,moderate rain,-3.5403,118.9707,Kost Putri RABBANI
22,Adrar,MR,79.14,clear sky,20.5022,-10.0711,
25,Catuday,PH,81.7,broken clouds,16.2923,119.8062,Benjie's Kubo & Cottages
28,Saint-Philippe,RE,72.21,light rain,-21.3585,55.7679,"Chambres d'hôte ""La Trinité"""
29,Arlit,NE,80.58,scattered clouds,18.7369,7.3853,Case de Passage De la Prefecture
31,Broken Hill,AU,74.91,clear sky,-31.95,141.4333,Royal Exchange Hotel
32,Mangai,CD,69.42,overcast clouds,-4.05,19.5333,
37,Wanning,CN,78.85,broken clouds,18.8003,110.3967,Paradise Hotel
38,Felipe Carrillo Puerto,MX,76.01,clear sky,19.5833,-88.05,Hotel La Ceiba
42,Busselton,AU,66.13,overcast clouds,-33.65,115.3333,Observatory Guest House
45,Mehtar Lam,AF,66.99,clear sky,34.6714,70.2094,Fareed Hakamani
46,Hilo,US,83.28,light rain,19.7297,-155.09,Hilo Hawaiian Hotel
47,Kahului,US,77.97,overcast clouds,20.8947,-156.47,Maui Seaside Hotel
49,Marsa Matruh,EG,61.0,clear sky,31.3525,27.2453,Beau Site
50,Mount Gambier,AU,60.71,overcast clouds,-37.8333,140.7667,The Commodore
52,Laguna,US,71.76,clear sky,38.421,-121.4238,"Holiday Inn Express & Suites Elk Grove Central - Hwy 99, an IHG Hotel"
55,Hithadhoo,MV,82.51,scattered clouds,-0.6,73.0833,Scoop Guest House
57,New Norfolk,AU,61.66,overcast clouds,-42.7826,147.0587,The Shingles Riverside Cottages
58,Thabazimbi,ZA,66.83,broken clouds,-24.5917,27.4116,Eagle's Rest
60,Luwuk,ID,84.6,overcast clouds,-0.9516,122.7875,Hotel Santika Luwuk
61,Coelho Neto,BR,73.54,overcast clouds,-4.2567,-43.0128,Hotel Tejof
62,Lompoc,US,66.02,mist,34.6391,-120.4579,"Holiday Inn Express Lompoc, an IHG Hotel"
63,Nouadhibou,MR,62.58,clear sky,20.931,-17.0347,El Medina
64,Laredo,US,88.09,clear sky,27.5064,-99.5075,La Quinta Inn by Wyndham Laredo I-35
65,Buraydah,SA,73.85,clear sky,26.326,43.975,Mövenpick Qassim
68,Arraial Do Cabo,BR,72.88,clear sky,-22.9661,-42.0278,Pousada Porto Praia
69,San Andres,CO,82.42,few clouds,12.5847,-81.7006,Hotel Arena Blanca
72,Rikitea,PF,77.58,clear sky,-23.1203,-134.9692,People ThankYou
74,Pitimbu,BR,81.19,broken clouds,-7.4706,-34.8086,Reserva do Abiaí
75,Chetumal,MX,80.62,clear sky,18.5,-88.3,Hotel & Suites Arges - - Pet Friendly
76,Butaritari,KI,81.77,light rain,3.0707,172.7902,Isles Sunset Lodge
77,Zemio,CF,69.55,overcast clouds,5.0314,25.1361,OCHA Office
78,Buin,CL,64.06,clear sky,-33.7333,-70.75,Paihuen
79,Ponta Do Sol,PT,64.71,overcast clouds,32.6667,-17.1,Hotel do Campo
81,Kodinar,IN,77.99,clear sky,20.7903,70.7031,residency of N.B vadhel
82,Kapaa,US,82.38,overcast clouds,22.0752,-159.319,Sheraton Kauai Coconut Beach Resort
83,Kroya,ID,81.36,broken clouds,-7.6331,109.2461,Devina kost & Homestay Kroya
84,Sambava,MG,77.0,moderate rain,-14.2667,50.1667,Melrose
85,Lindi,TZ,73.35,overcast clouds,-10.0,39.7167,Lindi paradise house
90,Grand Gaube,MU,76.37,light rain,-20.0064,57.6608,Veranda Paul et Virginie Hotel & Spa
92,Kabare,CD,62.31,heavy intensity rain,-2.4683,28.8242,Hôtel Panorama
94,Antsohihy,MG,77.41,clear sky,-14.8796,47.9875,Hotel de Ville
100,Atuona,PF,79.18,few clouds,-9.8,-139.0333,Villa Enata
102,Faanui,PF,82.4,clear sky,-16.4833,-151.75,Bora-Bora Pearl Beach Resort & Spa
110,Rawah,IQ,60.64,clear sky,34.4816,41.9093,
111,Chuy,UY,62.01,broken clouds,-33.6971,-53.4616,Nuevo Hotel Plaza
112,Saint George,US,77.63,clear sky,37.1041,-113.5841,Best Western Plus Abbey Inn
113,Avarua,CK,84.25,scattered clouds,-21.2078,-159.775,Paradise Inn
115,Port Shepstone,ZA,64.87,light rain,-30.7414,30.455,My Den Beachfront Bed and Breakfast | Self-Catering
118,Ponta Delgada,PT,61.52,few clouds,37.7333,-25.6667,Vila Nova Hotel
120,Cidreira,BR,64.29,overcast clouds,-30.1811,-50.2056,Hotel Castelo
122,Kingston,JM,81.55,few clouds,17.997,-76.7936,The Jamaica Pegasus Hotel
123,Dingle,PH,82.99,few clouds,10.9995,122.6711,SEGAYA PROPERTY
129,Hit,IQ,62.6,clear sky,33.6416,42.8251,بيت ابو رباح
130,Bambous Virieux,MU,76.21,light rain,-20.3428,57.7575,Casa Tia Villa
131,Hays,US,79.3,broken clouds,30.0502,-98.0336,Sinya on Lone Man Creek
133,Kashi,CN,60.01,clear sky,39.4547,75.9797,帕米尔青年旅舍
136,Kudahuvadhoo,MV,83.39,broken clouds,2.6708,72.8944,Niyama Private Islands Maldives
140,Muncar,ID,82.49,scattered clouds,-8.4333,114.3333,Zaky Homestay
141,Meulaboh,ID,78.62,broken clouds,4.1363,96.1285,Kost Pria
144,Aquiraz,BR,83.17,scattered clouds,-3.9014,-38.3911,Pousada Rua Camurupim
150,Victoria,HK,75.18,overcast clouds,22.2855,114.1577,Mini Hotel Central
152,Tocopilla,CL,63.61,clear sky,-22.092,-70.1979,Hotel Galvarino
153,Taltal,CL,61.03,clear sky,-25.4,-70.4833,Residencial Karime
154,Lundazi,ZM,64.36,overcast clouds,-12.2929,33.1782,Knox Lodge
156,Gamba,GA,76.48,overcast clouds,-2.65,10.0,
159,Carnarvon,AU,73.47,overcast clouds,-24.8667,113.6333,Hospitality Carnarvon
160,Mar Del Plata,AR,60.1,clear sky,-38.0023,-57.5575,Gran Hotel Mar del Plata
164,Sidney,AU,74.77,broken clouds,-33.8679,151.2073,The Grace Sydney
165,Ribeira Grande,PT,61.2,scattered clouds,38.5167,-28.7,Quinta da Meia Eira
168,Dogondoutchi,NE,83.41,overcast clouds,13.6393,4.0287,Hôtel Alheri Maison Alheri
170,Chaiyaphum,TH,84.06,scattered clouds,15.75,102.0,BBM Hotel
173,Port Augusta,AU,81.77,clear sky,-32.5,137.7667,Majestic Oasis Apartments
174,Pisco,PE,66.02,clear sky,-13.7,-76.2167,Hotel San Isidro Oficial
175,Talavera,PH,86.45,broken clouds,15.6167,120.9333,R&G's Resort
176,Georgetown,MY,82.33,thunderstorm,5.4112,100.3354,Cititel Penang
177,Port Lincoln,AU,71.8,clear sky,-34.7333,135.8667,Port Lincoln Hotel
179,Conde,BR,80.06,few clouds,-7.2597,-34.9075,Pousada Beija Flor
181,Senanga,ZM,69.66,overcast clouds,-16.1167,23.2667,Zango lodge
182,Saint-Paul,RE,77.36,light rain,-21.0096,55.2707,Boucan Canot
183,Imbituba,BR,63.82,scattered clouds,-28.24,-48.6703,Praia Hotel Imbituba
184,Lalmohan,BD,83.03,broken clouds,22.3384,90.7419,Arifur Rahman Miraj
185,Sur,OM,87.37,overcast clouds,22.5667,59.5289,Sur Plaza Hotel
186,Cabo San Lucas,MX,79.61,overcast clouds,22.8909,-109.9124,Hotel Tesoro Los Cabos
187,Bam,IR,74.03,few clouds,29.106,58.357,Bam Tourist Hotel
189,Eten,PE,67.21,overcast clouds,-6.9081,-79.8642,Hospedaje Sol Radiante
191,Tevaitoa,PF,82.02,clear sky,-16.7833,-151.5,Hôtel Raiatea Lodge
192,Saint-Pierre,RE,76.91,clear sky,-21.3393,55.4781,Lindsey Hôtel
194,Los Llanos De Aridane,ES,60.55,clear sky,28.6585,-17.9182,Valle Aridane
196,Nushki,PK,73.22,clear sky,29.5542,66.0215,Shams hotel
198,Bubaque,GW,74.5,clear sky,11.2833,-15.8333,"Casa Dora, Bubaque"
199,Dunedin,NZ,60.8,clear sky,-45.8742,170.5036,Scenic Hotel Southern Cross
201,Emerald,AU,78.94,clear sky,-23.5333,148.1667,The Irish Village
203,Camopi,GF,72.95,overcast clouds,3.1655,-52.3158,La pousada
204,Esperance,AU,64.24,overcast clouds,-33.8667,121.9,Hospitality Esperance
206,General Roca,AR,66.47,clear sky,-39.0333,-67.5833,Hotel El Recreo
209,La Romana,DO,77.36,few clouds,18.4273,-68.9728,Casa de Campo Resort and Villas
213,Dinghai,CN,61.72,overcast clouds,26.2847,119.7936,Shanhai Hotel
214,Flinders,AU,74.05,broken clouds,-34.5833,150.8552,Shellharbour Resort & Conference Centre
217,Caravelas,BR,75.6,moderate rain,-17.7125,-39.2481,Pousada dos Navegantes
220,Isangel,VU,87.91,scattered clouds,-19.55,169.2667,Tanna Lodge
223,Jutai,BR,73.4,overcast clouds,-5.1833,-68.9,
226,Jalu,LY,76.32,overcast clouds,29.0331,21.5482,صاحبة الفخامة
227,Japura,ID,75.22,overcast clouds,-0.3167,102.35,Rumah mbah Jamah
230,San Cristobal,VE,75.38,overcast clouds,7.7669,-72.225,Pirineos
231,San Fernando,PH,76.73,scattered clouds,15.0286,120.6898,Maharlika Hostel
235,Manavalakurichi,IN,81.64,overcast clouds,8.1333,77.3,Jebinrio home
236,Bonito,BR,62.37,clear sky,-21.1211,-56.4819,Marruá Hotel
237,Salinopolis,BR,78.19,light rain,-0.6136,-47.3561,Salinas Park Resort Maçarico AP101
239,Port Hedland,AU,91.45,few clouds,-20.3167,118.5667,The Esplanade Hotel
241,La Trinidad,PH,71.91,scattered clouds,16.455,120.5875,Paladin Hotel
242,Guerrero Negro,MX,62.55,overcast clouds,27.9769,-114.0611,"Casa Laguna, Bed & Breakfast"
244,Faya,SA,68.11,few clouds,18.3851,42.4509,املاك خالد الشعشوع
245,Lufilufi,WS,91.18,light rain,-13.8745,-171.5986,Leuaina Beach Resort and Spa
247,Merauke,ID,83.3,overcast clouds,-8.4667,140.3333,
249,Jacqueville,CI,80.55,light rain,5.2052,-4.4146,Hotel Le Martin Pecheur
250,Dali,CN,61.47,clear sky,25.7,100.1833,Dali Travelling With Hostel
251,Namibe,AO,70.81,few clouds,-15.1961,12.1522,Hotel Chik Chik Namibe
253,Oslob,PH,84.24,broken clouds,9.5211,123.4315,Down South 118 Beach Resort
254,Cayenne,GF,81.09,broken clouds,4.9333,-52.3333,Hôtel Le Dronmi
255,Boffa,GN,72.5,clear sky,10.1667,-14.0333,Hôtel Niara Belly
256,Inhambane,MZ,77.29,broken clouds,-23.865,35.3833,Oceano
258,Boa Vista,BR,76.98,broken clouds,2.8197,-60.6733,Aipana Plaza Hotel
259,Sinnamary,GF,77.9,overcast clouds,5.3833,-52.95,ALETHEIA Appartement Sinnamary
264,Trincomalee,LK,79.66,broken clouds,8.5711,81.2335,Welcombe Hotel
267,Bac Lieu,VN,83.86,broken clouds,9.285,105.7244,Khách sạn Sài Gòn Bạc Liêu
272,Vila Franca Do Campo,PT,61.21,few clouds,37.7167,-25.4333,Pestana Bahia Praia
273,Lazaro Cardenas,MX,77.61,overcast clouds,17.9583,-102.2,HOTEL QUINTA ANTIGUA
274,High Rock,BS,73.42,overcast clouds,26.6208,-78.2833,Hideaway Bahamas Beach Club
275,Barabai,ID,80.83,overcast clouds,-2.5833,115.3833,HOTEL BOURAQ INDAH PERMAI
277,Whitianga,NZ,67.73,overcast clouds,-36.8333,175.7,Beachside Resort Whitianga
281,Do Gonbadan,IR,68.09,clear sky,30.3586,50.7981,شبکه بهداشت و درمان گچساران
282,Doka,SD,86.5,overcast clouds,13.5167,35.7667,Um Rakuba Refugee Camp
285,Camapua,BR,67.17,clear sky,-19.5314,-54.0439,Comercial Estrela
286,Jiblah,YE,61.77,scattered clouds,13.9216,44.1467,Tiger Tower Hotel
288,Biak,ID,81.57,overcast clouds,-0.9131,122.8766,Penginapan Kim
289,Salalah,OM,76.53,clear sky,17.0151,54.0924,"HAMDAN PLAZA HOTEL SALALAH, an HTG Hotel"
290,Camocim,BR,78.31,broken clouds,-2.9022,-40.8411,Ilha Praia Hotel
291,Hambantota,LK,77.34,few clouds,6.1241,81.1185,Bungalow 63
292,Miraflores,MX,77.04,broken clouds,19.2167,-98.8083,Hotel Mansión
294,Pokhara,NP,72.48,clear sky,28.2333,83.9833,OYO 170 Hotel View Point
295,San Quintin,MX,61.74,overcast clouds,30.4833,-115.95,Don Eddie's Sport Fishing Center
297,San Patricio,US,80.69,few clouds,28.017,-97.5169,"Motel 6 Sinton, TX"
301,Champerico,GT,88.34,scattered clouds,14.3,-91.9167,"Hotel y restaurante ""El Diamante"""
302,Pangai,TO,78.91,overcast clouds,-19.8,-174.35,Ha'apai Beach Resort
305,Tomatlan,MX,76.75,overcast clouds,19.9333,-105.25,El Salvial
306,Sao Joao Da Barra,BR,72.23,overcast clouds,-21.6403,-41.0511,Pousada Porto De Canoas
307,Tura,IN,75.38,overcast clouds,25.5198,90.2201,Hotel RIKMAN Continental
310,Matara,LK,78.82,scattered clouds,5.9485,80.5353,Amaloh Boutique Resort
311,Alofi,NU,78.69,few clouds,-19.0595,-169.9187,Taloa Heights
313,Grand-Santi,GF,73.09,overcast clouds,4.25,-54.3833,Hotel La Villa Couacou
314,Porterville,US,78.51,few clouds,36.0652,-119.0168,"Holiday Inn Express & Suites Porterville, an IHG Hotel"
315,Manakara,MG,74.68,light rain,-22.1333,48.0167,La Residence Manakara
316,Teguise,ES,66.42,clear sky,29.0605,-13.564,B&B La Casona de Nazaret
317,Bonthe,SL,77.49,scattered clouds,7.5264,-12.505,Bonthe Holiday Village
319,Touros,BR,80.28,overcast clouds,-5.1989,-35.4608,INN NEW HORIZON
321,Safaga,EG,73.89,clear sky,26.7292,33.9365,Lamar Resort Abu Soma
322,East London,ZA,61.34,overcast clouds,-33.0153,27.9116,Tu Casa
323,Itarema,BR,77.97,broken clouds,-2.9248,-39.9167,"Sea Lounge! Bar, Club & Restaurant"
325,Wawa,NG,76.32,light rain,9.9022,4.4192,
327,Guiratinga,BR,72.5,scattered clouds,-16.3494,-53.7583,Hotel Angra do Cerrado - Guiratinga MT
328,Wundanyi,KE,61.38,overcast clouds,-3.4019,38.364,Taita Rocks Hotel
329,Karratha,AU,89.73,scattered clouds,-20.7377,116.8463,ibis Styles Karratha
330,Manaure,CO,80.17,few clouds,11.7751,-72.4445,Hotel Palaaima
331,Mayo,US,63.91,clear sky,38.8876,-76.5119,Resorts Resource Group International
334,Port Moresby,PG,87.22,haze,-9.4431,147.1797,Lamana Hotel (Port Moresby)
335,Kirakira,SB,84.9,broken clouds,-10.4544,161.9205,SanBiz Lodge
336,Poum,NC,77.99,few clouds,-20.2333,164.0167,
337,Rio Grande,BR,65.35,overcast clouds,-32.035,-52.0986,Hotel Atlântico Rio Grande
340,Marzuq,YE,67.55,clear sky,14.4,46.4667,
341,Nokaneng,BW,68.31,overcast clouds,-19.6667,22.2667,
343,Codrington,AU,71.24,few clouds,-38.2667,141.9667,Codrington Gardens Bed And Breakfast
344,Bhaktapur,NP,60.94,mist,27.6833,85.4167,Cosy Hotel
345,Harrisonburg,US,62.98,clear sky,38.4496,-78.8689,Hampton Inn Harrisonburg - University
346,Gao,ML,81.81,overcast clouds,16.6362,1.637,
347,Bathsheba,BB,79.41,few clouds,13.2167,-59.5167,Atlantis Hotel
349,Riyadh,SA,78.94,overcast clouds,24.6877,46.7219,"InterContinental Riyadh, an IHG Hotel"
352,Roswell,US,69.55,scattered clouds,34.0232,-84.3616,La Quinta Inn & Suites by Wyndham Atlanta Roswell
355,Ciudad Bolivar,VE,82.8,overcast clouds,8.1222,-63.5497,Hotel Edi
356,Mosquera,CO,62.69,few clouds,4.7059,-74.2302,Hotel SJ
358,Ewa Beach,US,78.1,overcast clouds,21.3156,-158.0072,Base Lodging
360,Uvira,CD,72.5,light rain,-3.4067,29.1458,Hotel Suzana
362,Mahebourg,MU,76.24,scattered clouds,-20.4081,57.7,Shandrani Beachcomber Resort & Spa
364,Muana,BR,74.86,overcast clouds,-1.5283,-49.2167,Pousada Bella do Marajó
367,Kavaratti,IN,83.32,overcast clouds,10.5669,72.642,Hotels in Lakshadweep Islands
368,Vao,NC,75.54,overcast clouds,-22.6667,167.4833,Hotel Kou-Bugny
369,Lagdo,CM,82.87,overcast clouds,9.05,13.7333,
370,Braganca,BR,73.83,overcast clouds,-1.0536,-46.7656,Marujo's Suíte Hotel
373,Kasongo-Lunda,CD,67.59,scattered clouds,-6.4667,16.8167,
374,Makungu,TZ,63.93,overcast clouds,-8.7333,35.2833,Complex
376,Daura,NG,81.46,overcast clouds,11.5538,11.4085,
377,Praia,CV,69.06,clear sky,14.9215,-23.5087,LT Aparthotel
378,Ca Mau,VN,84.07,overcast clouds,9.1769,105.15,Khách Sạn Mường Thanh Luxury Cà Mau
379,Virginia Beach,US,61.02,broken clouds,36.8529,-75.978,Hilton Virginia Beach Oceanfront
382,Aripuana,BR,73.47,overcast clouds,-9.1667,-60.6333,
384,Geraldton,AU,66.61,clear sky,-28.7667,114.6,Broadwater Mariner Resort
388,San Rafael Del Sur,NI,88.77,overcast clouds,11.8485,-86.4384,Hospedaje El Chino
389,Santa Isabel Do Rio Negro,BR,72.73,overcast clouds,-0.4139,-65.0192,Hotel GSA
392,Karoi,ZW,64.38,overcast clouds,-16.8099,29.6925,Chikangwe Guest houses
393,Kavieng,PG,84.24,light rain,-2.5744,150.7967,Nusa Island Retreat
396,Tirumullaivasal,IN,82.96,scattered clouds,11.2333,79.8333,
403,Baturaja,ID,75.11,overcast clouds,-4.1333,104.1667,"HOTEL Sekar Sunja, Baturaja Timur, Ogan Komering Ulu"
408,Porto Novo,BJ,84.02,overcast clouds,6.4965,2.6036,Tour Eiffel Hotel Benin
410,Mauganj,IN,83.86,clear sky,24.6833,81.8833,Hotel Shagun Palace & Marriage Garden
411,Lorengau,PG,84.94,scattered clouds,-2.0226,147.2712,Lorengau Harbourside Hotel
414,Springdale,US,69.93,scattered clouds,36.1867,-94.1288,Springdale Inn
415,Bongor,TD,87.1,overcast clouds,10.2806,15.3722,Oryx Palace
416,Itapecerica,BR,61.29,clear sky,-20.4725,-45.1256,Casa 3 Irmãos
418,Avera,US,69.31,few clouds,33.194,-82.5271,
419,Tautira,PF,80.53,light rain,-17.7333,-149.15,Pension Oaoa
420,Duiwelskloof,ZA,63.86,few clouds,-23.6934,30.14,Silvermist Guesthouse
425,Acapulco,MX,80.38,clear sky,16.8634,-99.8901,HS Hotsson Smart Acapulco
428,Tabanan,ID,81.0,broken clouds,-8.5413,115.1252,Puri Anom Homestay
429,Oranjestad,AW,80.55,few clouds,12.524,-70.027,Divi Village Golf & Beach Resort
430,Esmeraldas,BR,68.86,clear sky,-19.7625,-44.3139,Bom Será - Marcinho e Fernanda
431,Akyab,MM,84.52,scattered clouds,20.15,92.9,Hotel Memory
432,Livingstonia,MW,63.3,overcast clouds,-10.606,34.1063,Stone House Guest House
434,Saint-Joseph,RE,71.2,light rain,-21.3667,55.6167,"""Plantation Bed and Breakfast"
435,Mecca,SA,80.11,clear sky,21.4267,39.8261,"Makkah Clock Royal Tower, A Fairmont Hotel"
436,Bandar-E Lengeh,IR,89.71,haze,26.5579,54.8807,کافی نت پارس
437,Brejo,BR,74.01,overcast clouds,-3.6844,-42.7503,Hotel Santa Luzia
438,Mitsamiouli,KM,81.9,light rain,-11.3847,43.2844,Foyer ADM
439,Mumford,GH,80.19,light rain,5.2618,-0.759,Spanish Villa
440,Amahai,ID,86.43,overcast clouds,-3.3333,128.9167,HOTEL ISABELA
441,Samana,DO,74.26,few clouds,19.2056,-69.3369,The Bannister - Hotel & Yacht Club
445,Batemans Bay,AU,68.09,overcast clouds,-35.7167,150.1833,Batemans Bay Marina Resort
446,Arcos,BR,63.1,clear sky,-20.2819,-45.5394,Victor Plaza Hotel Arcos
447,Richards Bay,ZA,67.35,light rain,-28.783,32.0377,BON Hotel Waterfront Richards Bay
448,Bandarbeyla,SO,82.74,overcast clouds,9.4942,50.8122,JABIR HOTEL
449,Khilchipur,IN,81.52,clear sky,24.0333,76.5667,Hotel Uday Palace
450,Wattegama,LK,75.33,few clouds,6.7989,81.4808,
451,Wana,PK,63.68,clear sky,32.2989,69.5725,Rest House at Wana Camp
452,Fords,US,64.27,clear sky,40.5293,-74.316,Courtyard by Marriott Edison Woodbridge
453,Shahpura,IN,77.67,clear sky,27.3833,75.9667,Shahpura Haveli
454,Bartica,GY,77.32,overcast clouds,6.4,-58.6167,Sloth Island Nature Resort
455,Maridi,SS,67.15,overcast clouds,4.9158,29.4742,
457,Pottsville,US,60.44,broken clouds,40.6857,-76.1955,Ramada by Wyndham Pottsville/Frackville
462,Naze,JP,65.32,scattered clouds,28.3667,129.4833,Shishime Hotel
464,Kihei,US,77.97,overcast clouds,20.785,-156.4656,Maui Sunset
469,Alice Springs,AU,87.35,clear sky,-23.7,133.8833,Desert Palms Alice Springs
471,Honiara,SB,84.87,overcast clouds,-9.4333,159.95,Heritage Park Hotel
472,Eyl,SO,79.16,few clouds,7.9803,49.8164,Amiin Hotel
474,Puerto Ayacucho,VE,77.52,overcast clouds,5.6639,-67.6236,Posada Turistica Manapiare
475,Warrnambool,AU,69.82,clear sky,-38.3833,142.4833,Lady Bay Resort
476,Kidal,ML,77.77,few clouds,18.4411,1.4078,
481,Tallahassee,US,73.85,clear sky,30.4383,-84.2807,Four Points by Sheraton Tallahassee Downtown
482,Amapa,BR,71.78,overcast clouds,1.0,-52.0,
483,Port Macquarie,AU,73.89,overcast clouds,-31.4333,152.9167,Rydges Port Macquarie
484,Hukuntsi,BW,63.88,scattered clouds,-24.0,21.75,Entabeni Hotel
485,Morgan City,US,76.01,clear sky,29.6994,-91.2068,Hampton Inn & Suites Morgan City
487,Puerto Lempira,HN,80.74,scattered clouds,15.2667,-83.7667,Puerto Lempira gracias a Dios
488,Hurghada,EG,71.64,clear sky,27.2574,33.8129,Sea Star Beau Rivage Hotel
489,Bengkulu,ID,78.44,overcast clouds,-3.8004,102.2655,Grage Hotel Bengkulu
492,Itoman,JP,73.42,scattered clouds,26.1247,127.6694,Southern Beach Hotel & Resort Okinawa
494,Prainha,BR,74.37,overcast clouds,-1.8,-53.48,Casa Rocha
495,Puerto Narino,CO,73.22,overcast clouds,-3.7703,-70.3831,Eware Refugio Amazonico
496,Shorapur,IN,83.68,overcast clouds,16.5167,76.75,Maheshwari Bhawan
497,Rawson,AR,64.13,clear sky,-43.3002,-65.1023,Hosteria Sampedro
499,Hue,VN,78.91,mist,16.4667,107.6,Saigon Morin Hotel
500,Arraias,BR,69.35,overcast clouds,-12.9288,-46.9437,Hotel Japão
501,Callaguip,PH,82.42,few clouds,18.0714,120.4867,Pangil Beach Resort
502,Lithgow,AU,63.48,few clouds,-33.4833,150.15,Zig Zag Motel Lithgow
503,Chicama,PE,61.34,broken clouds,-7.8447,-79.1469,Balihai Bungalows
504,Bagua Grande,PE,76.03,light rain,-5.7561,-78.4411,HOTELNIEVA
506,Ulladulla,AU,72.77,overcast clouds,-35.35,150.4667,Sandpiper Motel
507,Puerto Leguizamo,CO,72.63,broken clouds,-0.1934,-74.7819,la casona de juancho
510,Pajapan,MX,77.45,broken clouds,18.25,-94.7,Hotel Del Carmen
511,Bahir Dar,ET,68.81,light rain,11.5936,37.3908,"Delano Hotel, Bahir Dar"
513,Meadow Lake,US,75.49,overcast clouds,34.8014,-106.5436,TumbleWeed RV Park
514,Zachary,US,76.69,clear sky,30.6485,-91.1565,"Holiday Inn Express & Suites Baton Rouge North, an IHG Hotel"
516,Robertsport,LR,79.45,broken clouds,6.7533,-11.3686,Kwepunha Retreat
518,Mayumba,GA,77.18,overcast clouds,-3.432,10.6554,LIKWALE LODGE
521,Itanhem,BR,70.05,light rain,-17.1664,-40.33,Hotel Resende
522,Ternate,ID,84.33,overcast clouds,0.8,127.4,Sahid Bela Ternate Hotel
523,Mandera,KE,80.49,light rain,3.9366,41.867,Hiren Hotel Mandera
526,Celestun,MX,80.04,broken clouds,20.8667,-90.4,Posada Lilia
528,Manicore,BR,73.44,overcast clouds,-5.8092,-61.3003,Hotel Durval
531,Sao Geraldo Do Araguaia,BR,74.43,scattered clouds,-6.4006,-48.555,Hotel Por do Sol
533,Omboue,GA,77.05,overcast clouds,-1.5746,9.2618,Hotel Olako
534,Comodoro Rivadavia,AR,64.26,clear sky,-45.8667,-67.5,Austral Hotel
535,Mogadishu,SO,81.03,overcast clouds,2.0371,45.3438,Hotel Juba
537,Mana,GF,77.4,overcast clouds,5.6592,-53.7767,LE SAMANA
538,Gondanglegi,ID,82.26,few clouds,-7.7479,112.0132,pondok pesantren mamba'ul 'ulum selo rejo
539,Oistins,BB,78.89,few clouds,13.0667,-59.5333,Butterfly Beach Hotel
540,Buchanan,LR,79.32,broken clouds,5.8808,-10.0467,Kamaneahn Hotel Inc
543,Colon,PA,81.36,broken clouds,9.3592,-79.9014,Sand Diamond Hotel
544,Thinadhoo,MV,82.58,few clouds,0.5333,72.9333,
546,Shushtar,IR,70.97,clear sky,32.0455,48.8567,چاپ یاس کبود
550,Hokitika,NZ,60.91,overcast clouds,-42.7167,170.9667,Beachfront Hotel Hokitika
551,Probolinggo,ID,84.16,overcast clouds,-7.7543,113.2159,Rumah Anggrek Syariah 1 RedPartner
552,Barinas,VE,82.44,overcast clouds,8.6226,-70.2075,Hotel Mastranto Suite
555,Padang,ID,78.85,overcast clouds,-0.9492,100.3543,Mercure Padang
556,Kiama,AU,74.25,broken clouds,-34.6833,150.8667,The Sebel Kiama Harbourside
557,Mataram,ID,85.01,overcast clouds,-8.5833,116.1167,Hotel Santika Mataram
561,Barranca,PE,65.77,broken clouds,-10.75,-77.7667,El Olivar Hospedaje
567,Northport,US,63.81,clear sky,33.229,-87.5772,Hotel Capstone
569,Ouallam,NE,83.34,overcast clouds,14.3188,2.0866,
571,Bosaso,SO,82.17,scattered clouds,11.2842,49.1816,Red Sea Hotel
574,Serenje,ZM,61.23,scattered clouds,-13.2325,30.2352,The Kabaso's
575,Pandaan,ID,80.1,overcast clouds,-7.6527,112.6875,Finna Golf & Country Club Resort
576,Codajas,BR,73.26,light rain,-3.8367,-62.0569,Atlântic Hotel
578,Mount Isa,AU,87.57,clear sky,-20.7333,139.5,ibis Styles Mt Isa Verona
581,Gawler,AU,81.25,clear sky,-34.6,138.7333,Eagle Foundry Bed & Breakfast
582,Sao Filipe,CV,70.75,clear sky,14.8961,-24.4956,Hotel Xaguate
583,Abu Dhabi,AE,84.31,clear sky,24.4667,54.3667,Beach Rotana
584,Mimongo,GA,68.29,overcast clouds,-1.6195,11.6068,
588,Yangambi,CD,69.22,overcast clouds,0.8102,24.4336,
589,Ixtapa,MX,75.22,overcast clouds,20.7,-105.2,hotel la terminal
591,Mufumbwe,ZM,63.86,overcast clouds,-13.6833,24.8,
596,Coari,BR,74.21,overcast clouds,-4.085,-63.1414,Dellrey Hotel Center
598,Muskogee,US,74.55,few clouds,35.5834,-95.3336,
600,Odweyne,SO,76.98,scattered clouds,9.4092,45.064,Eng Hiirey House
604,Wilmington,US,63.86,overcast clouds,34.2257,-77.9447,"Hotel Ballast Wilmington, Tapestry Collection by Hilton"
605,Vila Velha,BR,75.15,scattered clouds,-20.3297,-40.2925,Hotel Vitória Palace
606,Najran,SA,74.05,clear sky,17.4924,44.1277,محمد هادي ال فطيح
607,Tabora,TZ,64.06,overcast clouds,-5.0167,32.8,Barcelona Lodge
611,Oriximina,BR,75.4,overcast clouds,-1.7656,-55.8661,Pousada Tia Amélia
614,Tabatinga,BR,80.69,scattered clouds,-4.2525,-69.9381,Hotel Amazon Bed and Breakfast / Hotel Amazon B&B
615,Pacific Grove,US,63.9,overcast clouds,36.6177,-121.9166,Lovers Point Inn
616,Toamasina,MG,75.2,broken clouds,-18.1667,49.3833,Hotel H1
617,Birao,CF,81.68,overcast clouds,10.2849,22.7882,
618,Pasco,US,79.05,scattered clouds,28.292,-82.4165,Connection Community/Park
619,Benguela,AO,76.06,overcast clouds,-12.5763,13.4055,Hotel Praia Morena
620,Batticaloa,LK,79.27,scattered clouds,7.7102,81.6924,Grand Star Guest House
621,Quatre Cocos,MU,76.08,light rain,-20.2078,57.7625,Sunrise Attitude Hotel
623,Cockburn Town,TC,77.47,broken clouds,21.4612,-71.1419,Osprey Beach Hotel
625,Awbari,LY,69.12,clear sky,26.5921,12.7805,فندق أوباري
626,Kampene,CD,66.78,overcast clouds,-3.6,26.6667,
629,Timberlake,US,63.21,overcast clouds,37.3207,-79.2575,Timberlake Motel
630,Chimbote,PE,65.7,broken clouds,-9.0853,-78.5783,Hotel Briliá
633,Waingapu,ID,84.85,scattered clouds,-9.6567,120.2641,Pondok Wisata Elim
634,Pedro Carbo,EC,73.9,light rain,-1.8333,-80.2333,Centro turístico y hostería oasis pedro carbo
635,Gonaives,HT,77.83,clear sky,19.45,-72.6833,Vertières Doux Séjour
643,Wajir,KE,78.93,overcast clouds,1.7471,40.0573,Al-bustan Hotel And Restaurant.
645,Belmonte,BR,76.17,light rain,-15.8631,-38.8828,Pousada Monte Carmelo O Pão
646,Tabalosos,PE,64.6,broken clouds,-6.35,-76.6833,Proyecto de Lounge Nazareth
649,Dhidhdhoo,MV,84.33,overcast clouds,6.8833,73.1,Dhidhoo beach
652,Huarmey,PE,67.64,broken clouds,-10.0681,-78.1522,Hotel Miramar
654,Lucea,JM,80.46,clear sky,18.451,-78.1736,Grand Palladium Jamaica Resort & Spa
655,Hope,US,73.08,overcast clouds,33.6671,-93.5916,Best Western Hope
656,Qui Nhon,VN,80.2,overcast clouds,13.7667,109.2333,Khách sạn Hải Âu Quy Nhơn - Seagull Hotel
657,Gushikawa,JP,72.63,few clouds,26.3544,127.8686,Kirari Guest House
660,Suclayin,PH,78.39,overcast clouds,15.7568,121.5503,Costa Pacifica
661,May Pen,JM,81.61,clear sky,17.9645,-77.2451,Mus Com Bac
662,Namatanai,PG,85.21,scattered clouds,-3.6667,152.4333,Seagulls Inn Namatani
663,Isiro,CD,65.66,light rain,2.7739,27.616,Guest House Hewa Bora
664,Nishihara,JP,72.68,scattered clouds,26.1842,127.7558,Minshuku Agaihama
665,Samarai,PG,83.37,overcast clouds,-10.6167,150.6667,Nuli Sapi
667,Vicksburg,US,71.33,overcast clouds,32.3526,-90.8779,La Quinta Inn & Suites by Wyndham Vicksburg
668,Loikaw,MM,79.59,few clouds,19.6742,97.2094,Myat Nan Taw Hotel
671,Mazagao,BR,80.65,moderate rain,-0.115,-51.2894,Recanto dos Ferreiras
672,Kieta,PG,83.28,light rain,-6.2167,155.6333,Uruna Bay Retreat
675,Zhanakorgan,KZ,66.38,overcast clouds,43.9098,67.2495,"""Ақпалас"" қонақ үйі"
676,Llano De Piedra,PA,76.89,broken clouds,7.6667,-80.5667,
677,Ambilobe,MG,74.57,few clouds,-13.2,49.05,Hôtel & Restaurant DIANA Ambilobe
678,Rio Cuarto,AR,60.48,clear sky,-33.1307,-64.3499,Hotel Menossi
679,Misratah,LY,62.38,clear sky,32.3754,15.0925,Almasa Hotel
682,Bardiyah,LY,62.44,overcast clouds,31.7561,25.0865,بورتو بردية
683,Moerai,PF,80.58,few clouds,-22.4333,-151.3333,Le Manotel
684,Taua,BR,76.55,overcast clouds,-5.9667,-40.3,Chácara Paraíso
685,Kayan,MM,80.74,few clouds,16.9056,96.5631,ဖြိုးရတနာ ရွှေဆိုင်
686,Nabisar,PK,77.95,clear sky,25.0685,69.6419,Dhani Parto Dars
687,Lahaina,US,77.95,overcast clouds,20.8783,-156.6825,Lahaina Shores Beach Resort
689,Whakatane,NZ,67.77,overcast clouds,-37.9585,176.9854,Pacific Coast Motel
690,Minab,IR,81.9,few clouds,27.1467,57.0801,Bam campground
691,Morro Bay,US,70.38,overcast clouds,35.3658,-120.8499,Inn at Morro Bay
